{"yelp_data": {"latitude": 45.5450727523537, "neighborhoods": ["Rosemont-La Petite-Patrie"], "longitude": -73.5445697632294, "address": "3606 Rue Ontario Est, Rosemont-La Petite-Patrie, Montr\u00e9al, QC H1W 1R7"}, "google_data": [{"latitude": 45.5452252, "longitude": -73.5444888, "address": "3606 Rue Ontario E, Montr\u00e9al, QC H1W 1R7, Canada"}], "name": "Atomic Caf\u00e9"}
{"yelp_data": {"latitude": 45.5617486, "neighborhoods": ["Rosemont-La Petite-Patrie"], "longitude": -73.5421199, "address": "4970 Rue Hochelaga, Rosemont-La Petite-Patrie, Montr\u00e9al, QC H1V 1E8"}, "google_data": [{"latitude": 45.561687, "longitude": -73.54213399999999, "address": "4970 Rue Hochelaga, Montr\u00e9al, QC H1V, Canada"}], "name": "Restaurant Les Princesses"}
{"yelp_data": {"latitude": 45.5891369, "neighborhoods": ["Montr\u00e9al-Nord"], "longitude": -73.6355805, "address": "10715 Boulevard Pie, Montr\u00e9al-Nord, Montr\u00e9al, QC H1H"}, "google_data": [{"latitude": 45.4966551, "longitude": -73.5696048, "address": "1212 Avenue des Canadiens-de-Montr\u00e9al, Montr\u00e9al, QC H3B 2S2, Canada"}, {"latitude": 45.5067901, "longitude": -73.5526379, "address": "114 Rue Saint Paul E, Montr\u00e9al, QC H2Y 1G6, Canada"}, {"latitude": 45.5904242, "longitude": -73.5393599, "address": "7275 Rue Sherbrooke E, Montr\u00e9al, QC H1N 1E9, Canada"}, {"latitude": 45.589684, "longitude": -73.635458, "address": "10715 Boulevard Pie-IX, Montr\u00e9al, QC H1H 4A8, Canada"}, {"latitude": 45.571024, "longitude": -73.446715, "address": "1180 Place Nobel, Boucherville, QC J4B 5L2, Canada"}, {"latitude": 45.5222147, "longitude": -73.465375, "address": "2650 Chemin de Chambly, Longueuil, QC J4L 1M5, Canada"}, {"latitude": 45.56934709999999, "longitude": -73.7457381, "address": "2900 Boulevard le Carrefour, Laval, QC H7T 2K9, Canada"}, {"latitude": 45.44848, "longitude": -73.61543999999999, "address": "7077 Bd Newman, LaSalle, QC H8N 1X1, Canada"}, {"latitude": 45.591586, "longitude": -73.57611899999999, "address": "6419 Rue Jean-Talon E, Saint-L\u00e9onard, QC H1S 3E7, Canada"}, {"latitude": 45.4665974, "longitude": -73.8235505, "address": "6321 Rte Transcanadienne, Pointe-Claire, Qu\u00e9bec H9R 5A5, Canada"}, {"latitude": 45.3873749, "longitude": -73.5701377, "address": "280 Voie de Desserte de la Route 132, Saint-Constant, QC J5A 2S6, Canada"}, {"latitude": 45.6261491, "longitude": -73.849726, "address": "2355 Rue d'Annemasse, Boisbriand, QC J7H 0A3, Canada"}, {"latitude": 45.4449704, "longitude": -73.4374649, "address": "9300 Boulevard Leduc, Brossard, QC J4Y 0B3, Canada"}, {"latitude": 45.64838899999999, "longitude": -73.839111, "address": "100 Place Fabien Drapeau, Sainte-Th\u00e9r\u00e8se, QC J7E 5W6, Canada"}, {"latitude": 45.4067215, "longitude": -74.0362056, "address": "47 Boul de la Cit\u00e9 des Jeunes, Vaudreuil-Dorion, QC J7V 8C1, Canada"}, {"latitude": 45.5213117, "longitude": -73.3155221, "address": "2250 Boul Sir-Wilfrid-Laurier, Saint-Bruno-de-Montarville, QC J3V 4P6, Canada"}, {"latitude": 45.724733, "longitude": -73.663882, "address": "2247 Chemin Gascon, Lachenaie, QC J6X 4H3, Canada"}, {"latitude": 45.361627, "longitude": -73.712291, "address": "72 St-Jean-Baptiste, Ch\u00e2teauguay, QC J6K 4Y7, Canada"}, {"latitude": 45.747522, "longitude": -73.453262, "address": "125 Rue De Lafayette, Repentigny, QC J6A, Canada"}, {"latitude": 45.759341, "longitude": -74.017566, "address": "1055 Boulevard du Grand H\u00e9ron, St-J\u00e9r\u00f4me, QC J7Y 5K8, Canada"}], "name": "La Cage Aux Sports"}
{"yelp_data": {"latitude": 45.5486711, "neighborhoods": ["Rosemont-La Petite-Patrie"], "longitude": -73.5745769, "address": "3001 Masson Rue, Rosemont-La Petite-Patrie, Montr\u00e9al, QC H1Y 1X7"}, "google_data": [{"latitude": 45.5001103, "longitude": -73.5660907, "address": "895 Rue de la Gaucheti\u00e8re O, Montr\u00e9al, QC H3B 4G1, Canada"}, {"latitude": 45.5263231, "longitude": -73.5805721, "address": "860 Avenue du Mont-Royal E, Montr\u00e9al, QC H2J 1X1, Canada"}, {"latitude": 45.47654780000001, "longitude": -73.62142159999999, "address": "5500 Av de Monkland, Montr\u00e9al, QC H4A 1C7, Canada"}, {"latitude": 45.5488539, "longitude": -73.5746056, "address": "3001 Rue Masson, Montr\u00e9al, QC H1Y 1X7, Canada"}, {"latitude": 45.5354681, "longitude": -73.6155009, "address": "7075 Avenue Casgrain, Montr\u00e9al, QC H2S 3A3, Canada"}, {"latitude": 45.4957746, "longitude": -73.6204952, "address": "5199 Chemin de la C\u00f4te-des-Neiges, Montr\u00e9al, QC H3T 1Y1, Canada"}, {"latitude": 45.553945, "longitude": -73.5391528, "address": "4445 Rue Ontario E, Montr\u00e9al, QC H1V 3V3, Canada"}, {"latitude": 45.4790764, "longitude": -73.5763027, "address": "March\u00e9 Atwater, 3025 Rue Saint-Ambroise, Montr\u00e9al, QC H4C 2C2, Canada"}, {"latitude": 45.47829619999999, "longitude": -73.5769134, "address": "3025 Rue Saint-Ambroise, Montr\u00e9al, QC H4C 2C2, Canada"}, {"latitude": 45.5106364, "longitude": -73.57576259999999, "address": "333 Rue Prince Arthur O, Montr\u00e9al, QC H2X 3P8, Canada"}, {"latitude": 45.4841221, "longitude": -73.80595269999999, "address": "11678 rue de Salaberry, Dollar-des-Ormeaux, QC H9B 2R8, Canada"}, {"latitude": 45.5196405, "longitude": -73.6093332, "address": "1271 Avenue Bernard, Outremont, QC H2V 1V8, Canada"}, {"latitude": 45.51688, "longitude": -73.642479, "address": "1297 Chemin Canora, Mont-Royal, QC H3P 2J4, Canada"}, {"latitude": 45.4535969, "longitude": -73.4686825, "address": "Les Fruiti\u00e8res Vittoria, 7800 Boulevard Taschereau, Brossard, QC J4X 1C2, Canada"}, {"latitude": 45.45735519999999, "longitude": -73.86291050000001, "address": "3565 Boulevard Saint-Charles, Kirkland, QC H9H 3C4, Canada"}, {"latitude": 45.5644914, "longitude": -73.744526, "address": "March\u00e9 Gourmand, 2888 Avenue Du Cosmod\u00f4me, Laval, Qu\u00e9bec H7T 2X1, Canada"}, {"latitude": 45.5241367, "longitude": -73.4686081, "address": "2479 Chemin de Chambly, Longueuil, QC J4L 1M2, Canada"}, {"latitude": 45.4844151, "longitude": -73.4677541, "address": "350 Rue Lawrence,, Greenfield Park, QC J4V 2Z4, Canada"}, {"latitude": 45.4444285, "longitude": -73.440401, "address": "7200 Boulevard du Quartier #25, Brossard, Qu\u00e9bec J4Y 0B5, Canada"}, {"latitude": 45.7208502, "longitude": -73.66003429999999, "address": "2021 Chemin Gascon, Terrebonne, QC J6X 4H2, Canada"}], "name": "Boulangerie Premi\u00e8re Moisson"}
{"yelp_data": {"latitude": 45.5558183, "neighborhoods": ["Villeray-Saint-Michel-Parc-Extension"], "longitude": -73.5853888, "address": "6417 Av 12E, Villeray-Saint-Michel-Parc-Extension, Montr\u00e9al, QC H1X 3A6"}, "google_data": [{"latitude": 45.555903, "longitude": -73.585377, "address": "3350 Rue Beaubien E, Montr\u00e9al, QC H1X 1G5, Canada"}], "name": "Zytynsky's Deli"}
{"yelp_data": {"latitude": 45.5679434, "neighborhoods": ["Rosemont-La Petite-Patrie"], "longitude": -73.5526664, "address": "5300 rue Sherbrooke E, Rosemont-La Petite-Patrie, Montr\u00e9al, QC H1V 1A1"}, "google_data": [{"latitude": 45.56822559999999, "longitude": -73.551982, "address": "5300 Rue Sherbrooke E, Montr\u00e9al, QC H1V 1A1, Canada"}], "name": "Jardin Tiki"}
{"yelp_data": {"latitude": 45.5404247, "neighborhoods": ["Rosemont-La Petite-Patrie"], "longitude": -73.5593332, "address": "2901 Sherbrooke Rue E, Rosemont-La Petite-Patrie, Montr\u00e9al, QC H1W 1B2"}, "google_data": [{"latitude": 45.49702689999999, "longitude": -73.56929699999999, "address": "1180 Avenue des Canadiens-de-Montr\u00e9al, Montr\u00e9al, QC H3B 2S2, Canada"}, {"latitude": 45.5173703, "longitude": -73.5573149, "address": "1019 Rue Sainte-Catherine E, Montr\u00e9al, QC H2L 2G4, Canada"}, {"latitude": 45.4960859, "longitude": -73.621058, "address": "5235 Chemin de la C\u00f4te-des-Neiges, Montr\u00e9al, QC H3T 1Y1, Canada"}, {"latitude": 45.5084351, "longitude": -73.5647482, "address": "100 rue Ste-Catherine Ouest Succ. Desjardins, Local 282, Niveau 86, Montreal, Qu\u00e9bec H5B1B9, Canada"}, {"latitude": 45.5235859, "longitude": -73.5823961, "address": "4462 Rue Saint-Denis, Montr\u00e9al, QC H2J 2L1, Canada"}, {"latitude": 45.5542534, "longitude": -73.6652332, "address": "10520 rue Lajeunesse, Montr\u00e9al, QC H3L 2E6, Canada"}, {"latitude": 45.5790687, "longitude": -73.5456645, "address": "6225 rue Sherbrooke Est, Montr\u00e9al, QC H1N 1C3, Canada"}, {"latitude": 45.5878729, "longitude": -73.63365259999999, "address": "10495 Boulevard Pie-IX, Montr\u00e9al, QC H1H 4A3, Canada"}, {"latitude": 45.5956097, "longitude": -73.53472099999999, "address": "7870 rue Sherbrooke Est, Montr\u00e9al, QC H1L 1A5, Canada"}, {"latitude": 45.51033340000001, "longitude": -73.57502219999999, "address": "3575 Av du Parc, Montr\u00e9al, QC H2X 3P9, Canada"}, {"latitude": 45.4412839, "longitude": -73.6927714, "address": "665 32e Avenue, Lachine, QC H8T 3G6, Canada"}, {"latitude": 45.5358572, "longitude": -73.60193749999999, "address": "6355 rue St-Hubert, Montr\u00e9al, QC H2S 2L9, Canada"}, {"latitude": 45.4360381, "longitude": -73.6269403, "address": "7979 boul. Newman, LaSalle, QC H8N 2N9, Canada"}, {"latitude": 45.6004774, "longitude": -73.4474512, "address": "500 Rue Albanel, Boucherville, QC J4B 2Z6, Canada"}, {"latitude": 45.52758929999999, "longitude": -73.5151535, "address": "825 rue St-Laurent Ouest Unit\u00e9 #117, Longueuil, Qu\u00e9bec J4K2V1, Canada"}, {"latitude": 45.48768, "longitude": -73.849711, "address": "4700 boul. St-Jean, Pierrefonds, QC H9H 4B2, Canada"}, {"latitude": 45.650419, "longitude": -73.51224189999999, "address": "12575 Rue Sherbrooke E, Pointe-aux-Trembles, QC H1B 1C8, Canada"}, {"latitude": 45.5330662, "longitude": -73.788088, "address": "1150 desserte 13, Desserte S Autoroute 440, Ste-Doroth\u00e9e, Qu\u00e9bec H7X4C9, Canada"}, {"latitude": 45.44750559999999, "longitude": -73.852862, "address": "2939 boul. St-Charles, Kirkland, QC H9H 3B5, Canada"}, {"latitude": 45.5815749, "longitude": -73.7046987, "address": "1111 boul. des Laurentides, Laval, QC H7N 5B5, Canada"}], "name": "Restaurant St-Hubert Rotisserie"}
{"yelp_data": {"latitude": 45.5519428, "neighborhoods": ["Rosemont-La Petite-Patrie"], "longitude": -73.5661658, "address": "3520 Boul Saint-Joseph E, Rosemont-La Petite-Patrie, Montr\u00e9al, QC H1X 1W6"}, "google_data": [{"latitude": 45.5519297, "longitude": -73.56603160000002, "address": "3520 Boulevard Saint-Joseph Est, Montr\u00e9al, QC H1X 1W6, Canada"}], "name": "Rose ou Bleu"}
{"yelp_data": {"latitude": 45.5842794, "neighborhoods": ["Mercier-Hochelaga-Maisonneuve"], "longitude": -73.5421826, "address": "6752 Sherbrooke Rue E, Mercier-Hochelaga-Maisonneuve, Montr\u00e9al, QC H1N 1C9"}, "google_data": [{"latitude": 45.5841064, "longitude": -73.5419117, "address": "6752 Rue Sherbrooke E, Montr\u00e9al, QC H1N, Canada"}], "name": "Restaurant Pescara Pineta"}
{"yelp_data": {"latitude": 45.5596318969704, "neighborhoods": ["Rosemont-La Petite-Patrie"], "longitude": -73.549721680174, "address": "4777 Avenue Pierre-De Coubertin, Rosemont-La Petite-Patrie, Montr\u00e9al, QC H1V 1B3"}, "google_data": [{"latitude": 45.55965450000001, "longitude": -73.5497189, "address": "4777 Avenue Pierre-de Coubertin, Montr\u00e9al, QC H1V 1B3, Canada"}], "name": "Biod\u00f4me de Montr\u00e9al"}
{"yelp_data": {"latitude": 45.5528219, "neighborhoods": ["Rosemont-La Petite-Patrie"], "longitude": -73.5396242, "address": "4323 Rue Ontario E, Rosemont-La Petite-Patrie, Montr\u00e9al, QC H1V 1K5"}, "google_data": [{"latitude": 45.5529071, "longitude": -73.5397107, "address": "4323 Rue Ontario E, Montr\u00e9al, QC H1V 1K5, Canada"}], "name": "Bagatelle"}
{"yelp_data": {"latitude": 45.561378734557, "neighborhoods": ["Rosemont-La Petite-Patrie"], "longitude": -73.548180792947, "address": "4825 Avenue Pierre-de Coubertin, Rosemont-La Petite-Patrie, Montr\u00e9al, QC H1V 3V4"}, "google_data": [{"latitude": 45.56106579999999, "longitude": -73.5483258, "address": "4825 Avenue Pierre-de Coubertin, Montr\u00e9al, QC H1V 3V4, Canada"}], "name": "Cineplex- Starcit\u00e9"}
{"yelp_data": {"latitude": 45.54215948353, "neighborhoods": ["Rosemont-La Petite-Patrie"], "longitude": -73.563716050833, "address": "2925 Rue Rachel E, Rosemont-La Petite-Patrie, Montr\u00e9al, QC H1W 3Z8"}, "google_data": [{"latitude": 45.4598485, "longitude": -73.6250495, "address": "6600 Rue Saint-Jacques, Montr\u00e9al, QC H4B 1V8, Canada"}, {"latitude": 45.5449255, "longitude": -73.5624763, "address": "2925 Rue Rachel E, Montr\u00e9al, QC H1W 3Z8, Canada"}, {"latitude": 45.5915659, "longitude": -73.53586059999999, "address": "7600 Rue Sherbrooke E, Montr\u00e9al, QC H1N 3W1, Canada"}, {"latitude": 45.4511317, "longitude": -73.6071699, "address": "6767 Boulevard Newman, Montr\u00e9al, QC H8N 3E4, Canada"}, {"latitude": 45.5079091, "longitude": -73.66677659999999, "address": "300 Avenue Sainte Croix, Saint-Laurent, QC H4N 3K4, Canada"}, {"latitude": 45.4668445, "longitude": -73.5437224, "address": "42 Place du Commerce, Verdun, QC H3E 1J5, Canada"}, {"latitude": 45.5305887, "longitude": -73.622331, "address": "375 Rue Jean-Talon O, Montr\u00e9al, QC H3N 2Y8, Canada"}, {"latitude": 45.4908945, "longitude": -73.8503202, "address": "4849 Boul Saint-Jean, Montr\u00e9al, QC H9H 2A9, Canada"}, {"latitude": 45.5393818, "longitude": -73.4674081, "address": "1150 Rue King-George, Longueuil, QC J4N 1P3, Canada"}, {"latitude": 45.54438820000001, "longitude": -73.5623279, "address": "2925 Rue Rachel E, Montr\u00e9al, QC H1W 3Z8, Canada"}, {"latitude": 45.38352200000001, "longitude": -73.550507, "address": "31 Boulevard Georges Gagn\u00e9 S, Delson, QC J5B 2E4, Canada"}, {"latitude": 45.4052243, "longitude": -74.0308946, "address": "501 Avenue Saint Charles, Vaudreuil-Dorion, QC J7V 8V9, Canada"}, {"latitude": 45.63423639999999, "longitude": -72.9689491, "address": "2000 Boulevard Casavant O, Saint-Hyacinthe, QC J2S 7K2, Canada"}, {"latitude": 45.5411703, "longitude": -73.6750887, "address": "800 Boul Henri-Bourassa O, Montr\u00e9al, QC H3L 1P5, Canada"}, {"latitude": 45.5798593, "longitude": -73.6752573, "address": "1950 Boulevard de la Concorde E, Laval, QC H7G 4P5, Canada"}, {"latitude": 45.4674474, "longitude": -73.4734929, "address": "1575 Avenue Panama, Brossard, QC J4W 2S8, Canada"}, {"latitude": 45.5786548, "longitude": -73.7866906, "address": "444 Boulevard Cur\u00e9-Labelle, Laval, QC H7P 4W7, Canada"}, {"latitude": 45.7418553, "longitude": -73.454887, "address": "86 Boulevard Brien, Repentigny, QC J6A 2B6, Canada"}, {"latitude": 45.5734072, "longitude": -73.9119923, "address": "Boulevard Arthur-Sauv\u00e9, Saint-Eustache, Qu\u00e9bec J7P 4X4, Canada"}, {"latitude": 45.79404, "longitude": -74.0180855, "address": "900 Boulevard Grignon, Saint-J\u00e9r\u00f4me, QC J7Y 3S7, Canada"}], "name": "Loblaws"}
{"yelp_data": {"latitude": 45.6039342, "neighborhoods": ["Anjou"], "longitude": -73.5305227, "address": "8670 Sherbrooke Rue E, Anjou, Montr\u00e9al, QC H1L 1B9"}, "google_data": [{"latitude": 45.6039701, "longitude": -73.5302794, "address": "8670 Rue Sherbrooke E, Montr\u00e9al, QC H1L, Canada"}, {"latitude": 45.52394839999999, "longitude": -73.5606009, "address": "1480 Rue Ontario E, Montr\u00e9al, QC H2L, Canada"}, {"latitude": 45.4336683, "longitude": -73.6913398, "address": "3060 Boulevard Saint Joseph, Lachine, QC H8S 2P4, Canada"}, {"latitude": 45.7361758, "longitude": -73.4495783, "address": "403 Rue Notre-Dame, Repentigny, QC J6A 2T2, Canada"}], "name": "Le Grill Barroso"}
{"yelp_data": {"latitude": 45.5493917, "neighborhoods": ["Villeray-Saint-Michel-Parc-Extension"], "longitude": -73.5910534, "address": "2534 Beaubien Rue E, Villeray-Saint-Michel-Parc-Extension, Montr\u00e9al, QC H1Y 1G2"}, "google_data": [{"latitude": 45.54936110000001, "longitude": -73.59104719999999, "address": "2534 Rue Beaubien E, Montr\u00e9al, QC H1Y 1G2, Canada"}], "name": "Noche Y Dia"}